[
  {"id": 1,"name": "大文字山", "address": "〒606-0001 京都府京都市左京区", "owner": {"id": 1,"name": "Aoki Tomoya"}, "location": {"latitude": 35.0636842, "longitude": 135.7846862}},
  {"id": 2,"name": "四天王寺", "address": "〒543-0051 大阪府大阪市天王寺区四天王寺1-11-18", "owner": {"id": 2,"name": "Juan Tabares"}, "location": {"latitude": 34.6554559, "longitude": 135.5173815}},
  {"id": 3,"name": "清水寺", "address": "〒605-0862 京都府京都市東山区清水一丁目294", "owner": {"id": 1,"name": "Aoki Tomoya"}, "location": {"latitude": 34.9948714, "longitude": 135.7849863}},
  {"id": 4,"name": "三柱神社", "address": "〒832-0826 福岡県柳川市三橋町高畑323-1", "owner": {"id": 1,"name": "Aoki Tomoya"}, "location": {"latitude": 33.1698383, "longitude": 130.4147158}},
  {"id": 5,"name": "三柱神社", "address": "大分県別府市小倉6", "owner": {"id": 2,"name": "Juan Tabares"}, "location": {"latitude": 33.3080589, "longitude": 131.4588001}},
  {"id": 6,"name": "大文字山", "address": "〒606-0001 京都府京都市左京区", "owner": {"id": 1,"name": "Aoki Tomoya"}, "location": {"latitude": 35.0636842, "longitude": 135.7846862}},
  {"id": 7,"name": "四天王寺", "address": "〒543-0051 大阪府大阪市天王寺区四天王寺1-11-18", "owner": {"id": 2,"name": "Juan Tabares"}, "location": {"latitude": 34.6554559, "longitude": 135.5173815}},
  {"id": 8,"name": "清水寺", "address": "〒605-0862 京都府京都市東山区清水一丁目294", "owner": {"id": 1,"name": "Aoki Tomoya"}, "location": {"latitude": 34.9948714, "longitude": 135.7849863}},
  {"id": 9,"name": "三柱神社", "address": "〒832-0826 福岡県柳川市三橋町高畑323-1", "owner": {"id": 1,"name": "Aoki Tomoya"}, "location": {"latitude": 33.1698383, "longitude": 130.4147158}},
  {"id": 10,"name": "三柱神社", "address": "大分県別府市小倉6", "owner": {"id": 2,"name": "Juan Tabares"}, "location": {"latitude": 33.3080589, "longitude": 131.4588001}},
  {"id": 11,"name": "大文字山", "address": "〒606-0001 京都府京都市左京区", "owner": {"id": 1,"name": "Aoki Tomoya"}, "location": {"latitude": 35.0636842, "longitude": 135.7846862}},
  {"id": 12,"name": "四天王寺", "address": "〒543-0051 大阪府大阪市天王寺区四天王寺1-11-18", "owner": {"id": 2,"name": "Juan Tabares"}, "location": {"latitude": 34.6554559, "longitude": 135.5173815}},
  {"id": 13,"name": "清水寺", "address": "〒605-0862 京都府京都市東山区清水一丁目294", "owner": {"id": 1,"name": "Aoki Tomoya"}, "location": {"latitude": 34.9948714, "longitude": 135.7849863}},
  {"id": 15,"name": "三柱神社", "address": "〒832-0826 福岡県柳川市三橋町高畑323-1", "owner": {"id": 1,"name": "Aoki Tomoya"}, "location": {"latitude": 33.1698383, "longitude": 130.4147158}},
  {"id": 16,"name": "三柱神社", "address": "大分県別府市小倉6", "owner": {"id": 2,"name": "Juan Tabares"}, "location": {"latitude": 33.3080589, "longitude": 131.4588001}}
]
